{
"type": "FeatureCollection",
"name": "tampa_ev_stations",
"crs": { "type": "name", "properties": { "name": "urn:ogc:def:crs:OGC:1.3:CRS84" } },
"features": [
{ "type": "Feature", "properties": { "Station Name": "Courtesy Nissan - Tampa", "City": "Tampa", "Latitude": 27.995139, "Longitude": -82.506186 }, "geometry": { "type": "Point", "coordinates": [ -82.506186, 27.995139 ] } },
{ "type": "Feature", "properties": { "Station Name": "Ferman Nissan - North Tampa", "City": "Tampa", "Latitude": 28.04892, "Longitude": -82.45832 }, "geometry": { "type": "Point", "coordinates": [ -82.45832, 28.04892 ] } },
{ "type": "Feature", "properties": { "Station Name": "Tampa Area Electrical JATC", "City": "Tampa", "Latitude": 27.988197, "Longitude": -82.392164 }, "geometry": { "type": "Point", "coordinates": [ -82.392164, 27.988197 ] } },
{ "type": "Feature", "properties": { "Station Name": "Courtesy Nissan - Tampa", "City": "Tampa", "Latitude": 27.995139, "Longitude": -82.506186 }, "geometry": { "type": "Point", "coordinates": [ -82.506186, 27.995139 ] } },
{ "type": "Feature", "properties": { "Station Name": "Ferman Nissan - North Tampa", "City": "Tampa", "Latitude": 28.04892, "Longitude": -82.45832 }, "geometry": { "type": "Point", "coordinates": [ -82.45832, 28.04892 ] } },
{ "type": "Feature", "properties": { "Station Name": "HILLS COUNTY KEEL LIBRARY", "City": "Tampa", "Latitude": 28.086753, "Longitude": -82.492624 }, "geometry": { "type": "Point", "coordinates": [ -82.492624, 28.086753 ] } },
{ "type": "Feature", "properties": { "Station Name": "AutoNation Nissan - Brandon", "City": "Tampa", "Latitude": 27.946939, "Longitude": -82.340477 }, "geometry": { "type": "Point", "coordinates": [ -82.340477, 27.946939 ] } },
{ "type": "Feature", "properties": { "Station Name": "Publix #1182", "City": "Tampa", "Latitude": 27.941456, "Longitude": -82.48465 }, "geometry": { "type": "Point", "coordinates": [ -82.48465, 27.941456 ] } },
{ "type": "Feature", "properties": { "Station Name": "INTL PLAZA EV CHARGER 01", "City": "Tampa", "Latitude": 27.96646, "Longitude": -82.52059 }, "geometry": { "type": "Point", "coordinates": [ -82.52059, 27.96646 ] } },
{ "type": "Feature", "properties": { "Station Name": "Tampa International Airport - Short Term Parking Lot", "City": "Tampa", "Latitude": 27.982585, "Longitude": -82.53687 }, "geometry": { "type": "Point", "coordinates": [ -82.53687, 27.982585 ] } },
{ "type": "Feature", "properties": { "Station Name": "Tampa International Airport - Long Term Parking Lot", "City": "Tampa", "Latitude": 27.971237, "Longitude": -82.539312 }, "geometry": { "type": "Point", "coordinates": [ -82.539312, 27.971237 ] } },
{ "type": "Feature", "properties": { "Station Name": "Tampa International Airport - Economy Parking Lot", "City": "Tampa", "Latitude": 27.966583, "Longitude": -82.5359 }, "geometry": { "type": "Point", "coordinates": [ -82.5359, 27.966583 ] } },
{ "type": "Feature", "properties": { "Station Name": "BANYAN STREET C EV CHARGER 01", "City": "Tampa", "Latitude": 27.94634, "Longitude": -82.458478 }, "geometry": { "type": "Point", "coordinates": [ -82.458478, 27.94634 ] } },
{ "type": "Feature", "properties": { "Station Name": "HILLS COUNTY COUNTY GARAGE 1", "City": "Tampa", "Latitude": 27.948705, "Longitude": -82.454124 }, "geometry": { "type": "Point", "coordinates": [ -82.454124, 27.948705 ] } },
{ "type": "Feature", "properties": { "Station Name": "Wawa - Tesla Supercharger", "City": "Tampa", "Latitude": 27.965335, "Longitude": -82.402003 }, "geometry": { "type": "Point", "coordinates": [ -82.402003, 27.965335 ] } },
{ "type": "Feature", "properties": { "Station Name": "CITY OF TAMPA PALM AVE GARAGE", "City": "Tampa", "Latitude": 27.96155, "Longitude": -82.44576 }, "geometry": { "type": "Point", "coordinates": [ -82.44576, 27.96155 ] } },
{ "type": "Feature", "properties": { "Station Name": "CITY OF TAMPA FT BROOKE 02", "City": "Tampa", "Latitude": 27.946059, "Longitude": -82.456987 }, "geometry": { "type": "Point", "coordinates": [ -82.456987, 27.946059 ] } },
{ "type": "Feature", "properties": { "Station Name": "CITY OF TAMPA CENTROYBOR", "City": "Tampa", "Latitude": 27.9592, "Longitude": -82.441902 }, "geometry": { "type": "Point", "coordinates": [ -82.441902, 27.9592 ] } },
{ "type": "Feature", "properties": { "Station Name": "Courtyard by Marriott Tampa Brandon - Tesla Destination", "City": "Tampa", "Latitude": 27.941764, "Longitude": -82.333775 }, "geometry": { "type": "Point", "coordinates": [ -82.333775, 27.941764 ] } },
{ "type": "Feature", "properties": { "Station Name": "Epicurean Hotel - Tesla Destination", "City": "Tampa", "Latitude": 27.930867, "Longitude": -82.483448 }, "geometry": { "type": "Point", "coordinates": [ -82.483448, 27.930867 ] } },
{ "type": "Feature", "properties": { "Station Name": "Courtyard Tampa Northwest/Veterans Expressway - Tesla Destination", "City": "Tampa", "Latitude": 28.061739, "Longitude": -82.570731 }, "geometry": { "type": "Point", "coordinates": [ -82.570731, 28.061739 ] } },
{ "type": "Feature", "properties": { "Station Name": "Hampton Inn & Suites Tampa/Ybor City/Downtown - Tesla Destination", "City": "Tampa", "Latitude": 27.959829, "Longitude": -82.445018 }, "geometry": { "type": "Point", "coordinates": [ -82.445018, 27.959829 ] } },
{ "type": "Feature", "properties": { "Station Name": "Columbia Restaurant-Tampa - Tesla Destination", "City": "Tampa", "Latitude": 27.960431, "Longitude": -82.43529 }, "geometry": { "type": "Point", "coordinates": [ -82.43529, 27.960431 ] } },
{ "type": "Feature", "properties": { "Station Name": "West Wing Boutique Hotel - Tesla Destination", "City": "Tampa", "Latitude": 28.053612, "Longitude": -82.431082 }, "geometry": { "type": "Point", "coordinates": [ -82.431082, 28.053612 ] } },
{ "type": "Feature", "properties": { "Station Name": "Tampa Airport Marriott - Tesla Destination", "City": "Tampa", "Latitude": 27.981481, "Longitude": -82.534576 }, "geometry": { "type": "Point", "coordinates": [ -82.534576, 27.981481 ] } },
{ "type": "Feature", "properties": { "Station Name": "Eddie V's Prime Seafood - Tesla Destination", "City": "Tampa", "Latitude": 27.960272, "Longitude": -82.518576 }, "geometry": { "type": "Point", "coordinates": [ -82.518576, 27.960272 ] } },
{ "type": "Feature", "properties": { "Station Name": "The Westin Tampa Bay - Tesla Destination", "City": "Tampa", "Latitude": 27.968257, "Longitude": -82.565628 }, "geometry": { "type": "Point", "coordinates": [ -82.565628, 27.968257 ] } },
{ "type": "Feature", "properties": { "Station Name": "Winn-Dixie - Tesla Supercharger", "City": "Tampa", "Latitude": 27.937128, "Longitude": -82.481121 }, "geometry": { "type": "Point", "coordinates": [ -82.481121, 27.937128 ] } },
{ "type": "Feature", "properties": { "Station Name": "USF CEDAR DR 01", "City": "Tampa", "Latitude": 28.064069, "Longitude": -82.41242 }, "geometry": { "type": "Point", "coordinates": [ -82.41242, 28.064069 ] } },
{ "type": "Feature", "properties": { "Station Name": "HOLIDAY_INN HOLIDAY INN EXP", "City": "Tampa", "Latitude": 28.133439, "Longitude": -82.369474 }, "geometry": { "type": "Point", "coordinates": [ -82.369474, 28.133439 ] } },
{ "type": "Feature", "properties": { "Station Name": "TownePlace Suites by Marriott Tampa Westshore - Tesla Destination", "City": "Tampa", "Latitude": 27.902553, "Longitude": -82.507138 }, "geometry": { "type": "Point", "coordinates": [ -82.507138, 27.902553 ] } },
{ "type": "Feature", "properties": { "Station Name": "Tampa International Airport - Cell Phone Waiting Lot", "City": "Tampa", "Latitude": 27.966126250364429, "Longitude": -82.537231134918216 }, "geometry": { "type": "Point", "coordinates": [ -82.537231134918216, 27.966126250364429 ] } },
{ "type": "Feature", "properties": { "Station Name": "Verizon - Tampa", "City": "Tampa", "Latitude": 28.060801, "Longitude": -82.370813 }, "geometry": { "type": "Point", "coordinates": [ -82.370813, 28.060801 ] } },
{ "type": "Feature", "properties": { "Station Name": "MetLife - Tampa", "City": "Tampa", "Latitude": 28.129832, "Longitude": -82.374693 }, "geometry": { "type": "Point", "coordinates": [ -82.374693, 28.129832 ] } },
{ "type": "Feature", "properties": { "Station Name": "USF LOT 36 EVSE 01", "City": "Tampa", "Latitude": 28.05861, "Longitude": -82.41066 }, "geometry": { "type": "Point", "coordinates": [ -82.41066, 28.05861 ] } },
{ "type": "Feature", "properties": { "Station Name": "USF LOT 21 EVSE 01", "City": "Tampa", "Latitude": 28.061815, "Longitude": -82.40834 }, "geometry": { "type": "Point", "coordinates": [ -82.40834, 28.061815 ] } },
{ "type": "Feature", "properties": { "Station Name": "USF LOT 9A EVSE 01", "City": "Tampa", "Latitude": 28.063143, "Longitude": -82.41879 }, "geometry": { "type": "Point", "coordinates": [ -82.41879, 28.063143 ] } },
{ "type": "Feature", "properties": { "Station Name": "USF LOT 38F EVSE 01", "City": "Tampa", "Latitude": 28.066261, "Longitude": -82.424446 }, "geometry": { "type": "Point", "coordinates": [ -82.424446, 28.066261 ] } },
{ "type": "Feature", "properties": { "Station Name": "USF COLLINS EVSE 02", "City": "Tampa", "Latitude": 28.061333, "Longitude": -82.4126 }, "geometry": { "type": "Point", "coordinates": [ -82.4126, 28.061333 ] } },
{ "type": "Feature", "properties": { "Station Name": "USF LAUREL GARAGE 1", "City": "Tampa", "Latitude": 28.066648, "Longitude": -82.41842 }, "geometry": { "type": "Point", "coordinates": [ -82.41842, 28.066648 ] } },
{ "type": "Feature", "properties": { "Station Name": "USF BEARD GARAGE 03", "City": "Tampa", "Latitude": 28.058798, "Longitude": -82.4168 }, "geometry": { "type": "Point", "coordinates": [ -82.4168, 28.058798 ] } },
{ "type": "Feature", "properties": { "Station Name": "Aurora Garage", "City": "Tampa", "Latitude": 27.9468068, "Longitude": -82.4527171 }, "geometry": { "type": "Point", "coordinates": [ -82.4527171, 27.9468068 ] } },
{ "type": "Feature", "properties": { "Station Name": "Pierhouse Channelside", "City": "Tampa", "Latitude": 27.9454043, "Longitude": -82.4474516 }, "geometry": { "type": "Point", "coordinates": [ -82.4474516, 27.9454043 ] } },
{ "type": "Feature", "properties": { "Station Name": "Hampton/Home 2 Tampa Downtown Garage - Tesla Destination", "City": "Tampa", "Latitude": 27.950339, "Longitude": -82.448538 }, "geometry": { "type": "Point", "coordinates": [ -82.448538, 27.950339 ] } },
{ "type": "Feature", "properties": { "Station Name": "Home2 Suites Tampa USF near Busch Gardens - Tesla Destination", "City": "Tampa", "Latitude": 28.053566, "Longitude": -82.416916 }, "geometry": { "type": "Point", "coordinates": [ -82.416916, 28.053566 ] } },
{ "type": "Feature", "properties": { "Station Name": "Sleep Inn & Suites Tampa South - Tesla Destination", "City": "Tampa", "Latitude": 27.876044, "Longitude": -82.506946 }, "geometry": { "type": "Point", "coordinates": [ -82.506946, 27.876044 ] } },
{ "type": "Feature", "properties": { "Station Name": "CITY OF TAMPA CONV CENTER 1", "City": "Tampa", "Latitude": 27.942638, "Longitude": -82.456822 }, "geometry": { "type": "Point", "coordinates": [ -82.456822, 27.942638 ] } },
{ "type": "Feature", "properties": { "Station Name": "CITY OF TAMPA PAM IORIO 1", "City": "Tampa", "Latitude": 27.9425, "Longitude": -82.454176 }, "geometry": { "type": "Point", "coordinates": [ -82.454176, 27.9425 ] } },
{ "type": "Feature", "properties": { "Station Name": "Oxford Place At Tampa Palms - Building 4000", "City": "Tampa", "Latitude": 28.111484, "Longitude": -82.388707 }, "geometry": { "type": "Point", "coordinates": [ -82.388707, 28.111484 ] } },
{ "type": "Feature", "properties": { "Station Name": "Oxford Place At Tampa Palms - Building 12000", "City": "Tampa", "Latitude": 28.1137616, "Longitude": -82.3870566 }, "geometry": { "type": "Point", "coordinates": [ -82.3870566, 28.1137616 ] } },
{ "type": "Feature", "properties": { "Station Name": "HIGHWOODS TAM STFC #2", "City": "Tampa", "Latitude": 27.946995, "Longitude": -82.456148 }, "geometry": { "type": "Point", "coordinates": [ -82.456148, 27.946995 ] } },
{ "type": "Feature", "properties": { "Station Name": "USF BEARD GARAGE 01", "City": "Tampa", "Latitude": 28.058941, "Longitude": -82.417357 }, "geometry": { "type": "Point", "coordinates": [ -82.417357, 28.058941 ] } },
{ "type": "Feature", "properties": { "Station Name": "Edenson Dental - Tesla Destination", "City": "Tampa", "Latitude": 28.088302, "Longitude": -82.46045 }, "geometry": { "type": "Point", "coordinates": [ -82.46045, 28.088302 ] } },
{ "type": "Feature", "properties": { "Station Name": "Grand Hyatt Tampa Bay - Tesla Destination", "City": "Tampa", "Latitude": 27.964577, "Longitude": -82.549756 }, "geometry": { "type": "Point", "coordinates": [ -82.549756, 27.964577 ] } },
{ "type": "Feature", "properties": { "Station Name": "Pepin Distributing Company - Tesla Destination", "City": "Tampa", "Latitude": 27.98294, "Longitude": -82.398435 }, "geometry": { "type": "Point", "coordinates": [ -82.398435, 27.98294 ] } },
{ "type": "Feature", "properties": { "Station Name": "AFFINITY TAMPA BUILDING 8713", "City": "Tampa", "Latitude": 27.891991, "Longitude": -82.360124 }, "geometry": { "type": "Point", "coordinates": [ -82.360124, 27.891991 ] } },
{ "type": "Feature", "properties": { "Station Name": "AFFINITY TAMPA BUILDING 8720", "City": "Tampa", "Latitude": 27.892584, "Longitude": -82.359965 }, "geometry": { "type": "Point", "coordinates": [ -82.359965, 27.892584 ] } },
{ "type": "Feature", "properties": { "Station Name": "AFFINITY TAMPA BUILDING 8812", "City": "Tampa", "Latitude": 27.892798, "Longitude": -82.358719 }, "geometry": { "type": "Point", "coordinates": [ -82.358719, 27.892798 ] } },
{ "type": "Feature", "properties": { "Station Name": "AFFINITY TAMPA BUILDING 8713 2", "City": "Tampa", "Latitude": 27.891978, "Longitude": -82.359248 }, "geometry": { "type": "Point", "coordinates": [ -82.359248, 27.891978 ] } },
{ "type": "Feature", "properties": { "Station Name": "AFFINITY TAMPA NORTH GARAGES", "City": "Tampa", "Latitude": 27.893047, "Longitude": -82.357731 }, "geometry": { "type": "Point", "coordinates": [ -82.357731, 27.893047 ] } },
{ "type": "Feature", "properties": { "Station Name": "Walk at Highwoods Preserve (Tampa, FL)", "City": "Tampa", "Latitude": 28.13087, "Longitude": -82.3663 }, "geometry": { "type": "Point", "coordinates": [ -82.3663, 28.13087 ] } },
{ "type": "Feature", "properties": { "Station Name": "SARASOTA_USFFCU FLETCHER", "City": "Tampa", "Latitude": 28.068415, "Longitude": -82.371719 }, "geometry": { "type": "Point", "coordinates": [ -82.371719, 28.068415 ] } },
{ "type": "Feature", "properties": { "Station Name": "HILLS COUNTY COUNTY GARAGE 2", "City": "Tampa", "Latitude": 27.948631, "Longitude": -82.454094 }, "geometry": { "type": "Point", "coordinates": [ -82.454094, 27.948631 ] } },
{ "type": "Feature", "properties": { "Station Name": "INTL PLAZA EV CHARGER 02", "City": "Tampa", "Latitude": 27.966454, "Longitude": -82.520537 }, "geometry": { "type": "Point", "coordinates": [ -82.520537, 27.966454 ] } },
{ "type": "Feature", "properties": { "Station Name": "INTL PLAZA EV CHARGER 04", "City": "Tampa", "Latitude": 27.96646, "Longitude": -82.52041 }, "geometry": { "type": "Point", "coordinates": [ -82.52041, 27.96646 ] } },
{ "type": "Feature", "properties": { "Station Name": "INTL PLAZA EV CHARGER 03", "City": "Tampa", "Latitude": 27.966459, "Longitude": -82.520467 }, "geometry": { "type": "Point", "coordinates": [ -82.520467, 27.966459 ] } },
{ "type": "Feature", "properties": { "Station Name": "CITY OF TAMPA POE GARAGE 1", "City": "Tampa", "Latitude": 27.950253, "Longitude": -82.462024 }, "geometry": { "type": "Point", "coordinates": [ -82.462024, 27.950253 ] } },
{ "type": "Feature", "properties": { "Station Name": "CITY OF TAMPA FT BROOKE 01", "City": "Tampa", "Latitude": 27.945993, "Longitude": -82.456955 }, "geometry": { "type": "Point", "coordinates": [ -82.456955, 27.945993 ] } },
{ "type": "Feature", "properties": { "Station Name": "CITY OF TAMPA FT BROOKE 3", "City": "Tampa", "Latitude": 27.946129, "Longitude": -82.456764 }, "geometry": { "type": "Point", "coordinates": [ -82.456764, 27.946129 ] } },
{ "type": "Feature", "properties": { "Station Name": "USF CEDAR DR 02", "City": "Tampa", "Latitude": 28.064011, "Longitude": -82.412431 }, "geometry": { "type": "Point", "coordinates": [ -82.412431, 28.064011 ] } },
{ "type": "Feature", "properties": { "Station Name": "USF LOT 38F EVSE 02", "City": "Tampa", "Latitude": 28.06632, "Longitude": -82.424446 }, "geometry": { "type": "Point", "coordinates": [ -82.424446, 28.06632 ] } },
{ "type": "Feature", "properties": { "Station Name": "USF COLLINS EVSE 01", "City": "Tampa", "Latitude": 28.061285, "Longitude": -82.4126 }, "geometry": { "type": "Point", "coordinates": [ -82.4126, 28.061285 ] } },
{ "type": "Feature", "properties": { "Station Name": "USF BEARD GARAGE 04", "City": "Tampa", "Latitude": 28.058868, "Longitude": -82.417701 }, "geometry": { "type": "Point", "coordinates": [ -82.417701, 28.058868 ] } },
{ "type": "Feature", "properties": { "Station Name": "HIGHWOODS TAM STFC #1", "City": "Tampa", "Latitude": 27.946985, "Longitude": -82.45622 }, "geometry": { "type": "Point", "coordinates": [ -82.45622, 27.946985 ] } },
{ "type": "Feature", "properties": { "Station Name": "USF BEARD GARAGE 02", "City": "Tampa", "Latitude": 28.058963, "Longitude": -82.417354 }, "geometry": { "type": "Point", "coordinates": [ -82.417354, 28.058963 ] } },
{ "type": "Feature", "properties": { "Station Name": "USF Federal Credit Union", "City": "Tampa", "Latitude": 28.16843, "Longitude": -82.354456 }, "geometry": { "type": "Point", "coordinates": [ -82.354456, 28.16843 ] } },
{ "type": "Feature", "properties": { "Station Name": "AVION PARK AVION PARK 1", "City": "Tampa", "Latitude": 27.956709, "Longitude": -82.532627 }, "geometry": { "type": "Point", "coordinates": [ -82.532627, 27.956709 ] } },
{ "type": "Feature", "properties": { "Station Name": "Publix #1653", "City": "Tampa", "Latitude": 27.944344, "Longitude": -82.5267 }, "geometry": { "type": "Point", "coordinates": [ -82.5267, 27.944344 ] } },
{ "type": "Feature", "properties": { "Station Name": "7-Eleven", "City": "Tampa", "Latitude": 28.118327, "Longitude": -82.378735 }, "geometry": { "type": "Point", "coordinates": [ -82.378735, 28.118327 ] } },
{ "type": "Feature", "properties": { "Station Name": "NOHO Holdings", "City": "Tampa", "Latitude": 27.9523, "Longitude": -82.48272 }, "geometry": { "type": "Point", "coordinates": [ -82.48272, 27.9523 ] } },
{ "type": "Feature", "properties": { "Station Name": "IRVING PLACE CT4021 DUALPORT", "City": "Tampa", "Latitude": 27.991403, "Longitude": -82.574832 }, "geometry": { "type": "Point", "coordinates": [ -82.574832, 27.991403 ] } },
{ "type": "Feature", "properties": { "Station Name": "HERON CHARGING STATION 3", "City": "Tampa", "Latitude": 27.943153, "Longitude": -82.44928 }, "geometry": { "type": "Point", "coordinates": [ -82.44928, 27.943153 ] } },
{ "type": "Feature", "properties": { "Station Name": "HERON CHARGING STATION 8", "City": "Tampa", "Latitude": 27.943258, "Longitude": -82.44921 }, "geometry": { "type": "Point", "coordinates": [ -82.44921, 27.943258 ] } },
{ "type": "Feature", "properties": { "Station Name": "HERON CHARGING STATION 2", "City": "Tampa", "Latitude": 27.943247, "Longitude": -82.44921 }, "geometry": { "type": "Point", "coordinates": [ -82.44921, 27.943247 ] } },
{ "type": "Feature", "properties": { "Station Name": "HERON CHARGING STATION 6", "City": "Tampa", "Latitude": 27.943188, "Longitude": -82.44935 }, "geometry": { "type": "Point", "coordinates": [ -82.44935, 27.943188 ] } },
{ "type": "Feature", "properties": { "Station Name": "HERON CHARGING STATION 1", "City": "Tampa", "Latitude": 27.943193, "Longitude": -82.44918 }, "geometry": { "type": "Point", "coordinates": [ -82.44918, 27.943193 ] } },
{ "type": "Feature", "properties": { "Station Name": "HERON CHARGING STATION 5", "City": "Tampa", "Latitude": 27.943095, "Longitude": -82.449335 }, "geometry": { "type": "Point", "coordinates": [ -82.449335, 27.943095 ] } },
{ "type": "Feature", "properties": { "Station Name": "HERON CHARGING STATION 9", "City": "Tampa", "Latitude": 27.943266, "Longitude": -82.449272 }, "geometry": { "type": "Point", "coordinates": [ -82.449272, 27.943266 ] } },
{ "type": "Feature", "properties": { "Station Name": "HERON CHARGING STATION 7", "City": "Tampa", "Latitude": 27.943193, "Longitude": -82.449318 }, "geometry": { "type": "Point", "coordinates": [ -82.449318, 27.943193 ] } },
{ "type": "Feature", "properties": { "Station Name": "HERON CHARGING STATION 4", "City": "Tampa", "Latitude": 27.943338, "Longitude": -82.44954 }, "geometry": { "type": "Point", "coordinates": [ -82.44954, 27.943338 ] } },
{ "type": "Feature", "properties": { "Station Name": "HERON CHARGING STATION 10", "City": "Tampa", "Latitude": 27.943203, "Longitude": -82.449234 }, "geometry": { "type": "Point", "coordinates": [ -82.449234, 27.943203 ] } },
{ "type": "Feature", "properties": { "Station Name": "MT NORTH GARAGE MIDTOWN TAMPA 1", "City": "Tampa", "Latitude": 27.953563, "Longitude": -82.502818 }, "geometry": { "type": "Point", "coordinates": [ -82.502818, 27.953563 ] } },
{ "type": "Feature", "properties": { "Station Name": "MT NORTH GARAGE MIDTOWN TAMPA 3", "City": "Tampa", "Latitude": 27.953737, "Longitude": -82.503834 }, "geometry": { "type": "Point", "coordinates": [ -82.503834, 27.953737 ] } },
{ "type": "Feature", "properties": { "Station Name": "MT NORTH GARAGE MIDTOWN TAMPA 2", "City": "Tampa", "Latitude": 27.952808, "Longitude": -82.50192 }, "geometry": { "type": "Point", "coordinates": [ -82.50192, 27.952808 ] } },
{ "type": "Feature", "properties": { "Station Name": "MT NORTH GARAGE MIDTOWN TAMPA 4", "City": "Tampa", "Latitude": 27.953339, "Longitude": -82.502391 }, "geometry": { "type": "Point", "coordinates": [ -82.502391, 27.953339 ] } },
{ "type": "Feature", "properties": { "Station Name": "MT NORTH GARAGE MIDTOWN TAMPA 5", "City": "Tampa", "Latitude": 27.952996, "Longitude": -82.503141 }, "geometry": { "type": "Point", "coordinates": [ -82.503141, 27.952996 ] } },
{ "type": "Feature", "properties": { "Station Name": "2 Bayshore", "City": "Tampa", "Latitude": 27.9405889, "Longitude": -82.46091 }, "geometry": { "type": "Point", "coordinates": [ -82.46091, 27.9405889 ] } },
{ "type": "Feature", "properties": { "Station Name": "Northdale I", "City": "Tampa", "Latitude": 28.0932683, "Longitude": -82.5063762 }, "geometry": { "type": "Point", "coordinates": [ -82.5063762, 28.0932683 ] } },
{ "type": "Feature", "properties": { "Station Name": "USF PATEL CGS", "City": "Tampa", "Latitude": 28.055817, "Longitude": -82.408233 }, "geometry": { "type": "Point", "coordinates": [ -82.408233, 28.055817 ] } },
{ "type": "Feature", "properties": { "Station Name": "SABLE VENTURE STATION 1", "City": "Tampa", "Latitude": 27.976987, "Longitude": -82.335405 }, "geometry": { "type": "Point", "coordinates": [ -82.335405, 27.976987 ] } },
{ "type": "Feature", "properties": { "Station Name": "SABLE VENTURE STATION 2", "City": "Tampa", "Latitude": 27.976861, "Longitude": -82.335445 }, "geometry": { "type": "Point", "coordinates": [ -82.335445, 27.976861 ] } },
{ "type": "Feature", "properties": { "Station Name": "CUMBERLAND GARA CUMBERLAND 12", "City": "Tampa", "Latitude": 27.94449, "Longitude": -82.449362 }, "geometry": { "type": "Point", "coordinates": [ -82.449362, 27.94449 ] } },
{ "type": "Feature", "properties": { "Station Name": "CUMBERLAND GARA CUMBERLAND 2", "City": "Tampa", "Latitude": 27.944596, "Longitude": -82.449283 }, "geometry": { "type": "Point", "coordinates": [ -82.449283, 27.944596 ] } },
{ "type": "Feature", "properties": { "Station Name": "CUMBERLAND GARA CUMBERLAND 5", "City": "Tampa", "Latitude": 27.944494, "Longitude": -82.449387 }, "geometry": { "type": "Point", "coordinates": [ -82.449387, 27.944494 ] } },
{ "type": "Feature", "properties": { "Station Name": "CUMBERLAND GARA CUMBERLAND 16", "City": "Tampa", "Latitude": 27.94458, "Longitude": -82.449273 }, "geometry": { "type": "Point", "coordinates": [ -82.449273, 27.94458 ] } },
{ "type": "Feature", "properties": { "Station Name": "CUMBERLAND GARA CUMBERLAND 14", "City": "Tampa", "Latitude": 27.944484, "Longitude": -82.449226 }, "geometry": { "type": "Point", "coordinates": [ -82.449226, 27.944484 ] } },
{ "type": "Feature", "properties": { "Station Name": "CUMBERLAND GARA CUMBERLAND 4", "City": "Tampa", "Latitude": 27.944428, "Longitude": -82.449379 }, "geometry": { "type": "Point", "coordinates": [ -82.449379, 27.944428 ] } },
{ "type": "Feature", "properties": { "Station Name": "CUMBERLAND GARA CUMBERLAND 9", "City": "Tampa", "Latitude": 27.944653, "Longitude": -82.449346 }, "geometry": { "type": "Point", "coordinates": [ -82.449346, 27.944653 ] } },
{ "type": "Feature", "properties": { "Station Name": "CUMBERLAND GARA CUMBERLAND 8", "City": "Tampa", "Latitude": 27.944537, "Longitude": -82.449405 }, "geometry": { "type": "Point", "coordinates": [ -82.449405, 27.944537 ] } },
{ "type": "Feature", "properties": { "Station Name": "CUMBERLAND GARA CUMBERLAND 3", "City": "Tampa", "Latitude": 27.944476, "Longitude": -82.449412 }, "geometry": { "type": "Point", "coordinates": [ -82.449412, 27.944476 ] } },
{ "type": "Feature", "properties": { "Station Name": "CUMBERLAND GARA CUMBERLAND 6", "City": "Tampa", "Latitude": 27.944439, "Longitude": -82.449182 }, "geometry": { "type": "Point", "coordinates": [ -82.449182, 27.944439 ] } },
{ "type": "Feature", "properties": { "Station Name": "CUMBERLAND GARA CUMBERLAND 13", "City": "Tampa", "Latitude": 27.944486, "Longitude": -82.449324 }, "geometry": { "type": "Point", "coordinates": [ -82.449324, 27.944486 ] } },
{ "type": "Feature", "properties": { "Station Name": "CUMBERLAND GARA CUMBERLAND 11", "City": "Tampa", "Latitude": 27.944461, "Longitude": -82.449426 }, "geometry": { "type": "Point", "coordinates": [ -82.449426, 27.944461 ] } },
{ "type": "Feature", "properties": { "Station Name": "CUMBERLAND GARA CUMBERLAND 10", "City": "Tampa", "Latitude": 27.94449, "Longitude": -82.449352 }, "geometry": { "type": "Point", "coordinates": [ -82.449352, 27.94449 ] } },
{ "type": "Feature", "properties": { "Station Name": "CUMBERLAND GARA CUMBERLAND 1", "City": "Tampa", "Latitude": 27.944582, "Longitude": -82.449283 }, "geometry": { "type": "Point", "coordinates": [ -82.449283, 27.944582 ] } },
{ "type": "Feature", "properties": { "Station Name": "CUMBERLAND GARA CUMBERLAND 15", "City": "Tampa", "Latitude": 27.944578, "Longitude": -82.449384 }, "geometry": { "type": "Point", "coordinates": [ -82.449384, 27.944578 ] } },
{ "type": "Feature", "properties": { "Station Name": "CUMBERLAND GARA CUMBERLAND 7", "City": "Tampa", "Latitude": 27.944905, "Longitude": -82.449425 }, "geometry": { "type": "Point", "coordinates": [ -82.449425, 27.944905 ] } },
{ "type": "Feature", "properties": { "Station Name": "Wawa - Tesla Supercharger", "City": "Tampa", "Latitude": 27.949314, "Longitude": -82.504671 }, "geometry": { "type": "Point", "coordinates": [ -82.504671, 27.949314 ] } },
{ "type": "Feature", "properties": { "Station Name": "Wawa - Tesla Supercharger", "City": "Tampa", "Latitude": 27.99694, "Longitude": -82.37288 }, "geometry": { "type": "Point", "coordinates": [ -82.37288, 27.99694 ] } },
{ "type": "Feature", "properties": { "Station Name": "FRONT DOOR AREA STATION 1", "City": "Tampa", "Latitude": 28.032223, "Longitude": -82.422941 }, "geometry": { "type": "Point", "coordinates": [ -82.422941, 28.032223 ] } },
{ "type": "Feature", "properties": { "Station Name": "ASHER GARAGE STATION 4", "City": "Tampa", "Latitude": 27.944187, "Longitude": -82.45108 }, "geometry": { "type": "Point", "coordinates": [ -82.45108, 27.944187 ] } },
{ "type": "Feature", "properties": { "Station Name": "ASHER GARAGE STATION 8", "City": "Tampa", "Latitude": 27.944178, "Longitude": -82.451101 }, "geometry": { "type": "Point", "coordinates": [ -82.451101, 27.944178 ] } },
{ "type": "Feature", "properties": { "Station Name": "ASHER GARAGE STATION 9", "City": "Tampa", "Latitude": 27.944197, "Longitude": -82.451026 }, "geometry": { "type": "Point", "coordinates": [ -82.451026, 27.944197 ] } },
{ "type": "Feature", "properties": { "Station Name": "ASHER GARAGE STATION 1", "City": "Tampa", "Latitude": 27.944033, "Longitude": -82.451396 }, "geometry": { "type": "Point", "coordinates": [ -82.451396, 27.944033 ] } },
{ "type": "Feature", "properties": { "Station Name": "RIVERLAND CMAH 2", "City": "Tampa", "Latitude": 28.162276, "Longitude": -82.355431 }, "geometry": { "type": "Point", "coordinates": [ -82.355431, 28.162276 ] } },
{ "type": "Feature", "properties": { "Station Name": "RIVERLAND CMAH 1", "City": "Tampa", "Latitude": 28.162255, "Longitude": -82.355402 }, "geometry": { "type": "Point", "coordinates": [ -82.355402, 28.162255 ] } },
{ "type": "Feature", "properties": { "Station Name": "ASHER GARAGE STATION 7", "City": "Tampa", "Latitude": 27.944168, "Longitude": -82.451112 }, "geometry": { "type": "Point", "coordinates": [ -82.451112, 27.944168 ] } },
{ "type": "Feature", "properties": { "Station Name": "ASHER GARAGE STATION 6", "City": "Tampa", "Latitude": 27.944225, "Longitude": -82.45109 }, "geometry": { "type": "Point", "coordinates": [ -82.45109, 27.944225 ] } },
{ "type": "Feature", "properties": { "Station Name": "ASHER GARAGE STATION 5", "City": "Tampa", "Latitude": 27.944074, "Longitude": -82.451402 }, "geometry": { "type": "Point", "coordinates": [ -82.451402, 27.944074 ] } },
{ "type": "Feature", "properties": { "Station Name": "ASHER GARAGE STATION 10", "City": "Tampa", "Latitude": 27.94401, "Longitude": -82.451394 }, "geometry": { "type": "Point", "coordinates": [ -82.451394, 27.94401 ] } },
{ "type": "Feature", "properties": { "Station Name": "ASHER GARAGE STATION 15", "City": "Tampa", "Latitude": 27.944071, "Longitude": -82.451386 }, "geometry": { "type": "Point", "coordinates": [ -82.451386, 27.944071 ] } },
{ "type": "Feature", "properties": { "Station Name": "ASHER GARAGE STATION 11", "City": "Tampa", "Latitude": 27.944075, "Longitude": -82.451427 }, "geometry": { "type": "Point", "coordinates": [ -82.451427, 27.944075 ] } },
{ "type": "Feature", "properties": { "Station Name": "ASHER GARAGE STATION 12", "City": "Tampa", "Latitude": 27.944057, "Longitude": -82.451422 }, "geometry": { "type": "Point", "coordinates": [ -82.451422, 27.944057 ] } },
{ "type": "Feature", "properties": { "Station Name": "ASHER GARAGE STATION 13", "City": "Tampa", "Latitude": 27.944206, "Longitude": -82.451069 }, "geometry": { "type": "Point", "coordinates": [ -82.451069, 27.944206 ] } },
{ "type": "Feature", "properties": { "Station Name": "ASHER GARAGE STATION 14", "City": "Tampa", "Latitude": 27.944055, "Longitude": -82.451401 }, "geometry": { "type": "Point", "coordinates": [ -82.451401, 27.944055 ] } },
{ "type": "Feature", "properties": { "Station Name": "ASHER GARAGE STATION 3", "City": "Tampa", "Latitude": 27.944024, "Longitude": -82.451428 }, "geometry": { "type": "Point", "coordinates": [ -82.451428, 27.944024 ] } },
{ "type": "Feature", "properties": { "Station Name": "ASHER GARAGE STATION 2", "City": "Tampa", "Latitude": 27.944059, "Longitude": -82.45138 }, "geometry": { "type": "Point", "coordinates": [ -82.45138, 27.944059 ] } },
{ "type": "Feature", "properties": { "Station Name": "Bill Currie Ford - Level 2", "City": "Tampa", "Latitude": 28.001066, "Longitude": -82.504478 }, "geometry": { "type": "Point", "coordinates": [ -82.504478, 28.001066 ] } },
{ "type": "Feature", "properties": { "Station Name": "Oasis at Highwoods Preserve", "City": "Tampa", "Latitude": 28.1366663, "Longitude": -82.3729523 }, "geometry": { "type": "Point", "coordinates": [ -82.3729523, 28.1366663 ] } },
{ "type": "Feature", "properties": { "Station Name": "Northdale II", "City": "Tampa", "Latitude": 28.0928652, "Longitude": -82.5051861 }, "geometry": { "type": "Point", "coordinates": [ -82.5051861, 28.0928652 ] } },
{ "type": "Feature", "properties": { "Station Name": "Grady Square Garage", "City": "Tampa", "Latitude": 27.9652945, "Longitude": -82.5098227 }, "geometry": { "type": "Point", "coordinates": [ -82.5098227, 27.9652945 ] } },
{ "type": "Feature", "properties": { "Station Name": "Wawa - Tesla Supercharger", "City": "Tampa", "Latitude": 28.08838, "Longitude": -82.4518 }, "geometry": { "type": "Point", "coordinates": [ -82.4518, 28.08838 ] } },
{ "type": "Feature", "properties": { "Station Name": "The Slade", "City": "Tampa", "Latitude": 27.94954, "Longitude": -82.447829 }, "geometry": { "type": "Point", "coordinates": [ -82.447829, 27.94954 ] } },
{ "type": "Feature", "properties": { "Station Name": "Cortland Santos Flats", "City": "Tampa", "Latitude": 27.921223, "Longitude": -82.358224 }, "geometry": { "type": "Point", "coordinates": [ -82.358224, 27.921223 ] } },
{ "type": "Feature", "properties": { "Station Name": "AVLI Apartments", "City": "Tampa", "Latitude": 27.934825, "Longitude": -82.350416 }, "geometry": { "type": "Point", "coordinates": [ -82.350416, 27.934825 ] } },
{ "type": "Feature", "properties": { "Station Name": "Legacy Encore", "City": "Tampa", "Latitude": 27.955111, "Longitude": -82.452603 }, "geometry": { "type": "Point", "coordinates": [ -82.452603, 27.955111 ] } },
{ "type": "Feature", "properties": { "Station Name": "BELLCHANNELSIDE CHANNELSIDE", "City": "Tampa", "Latitude": 27.95364, "Longitude": -82.44727 }, "geometry": { "type": "Point", "coordinates": [ -82.44727, 27.95364 ] } },
{ "type": "Feature", "properties": { "Station Name": "IKEA USA TAMPA 1", "City": "Tampa", "Latitude": 27.953381, "Longitude": -82.432256 }, "geometry": { "type": "Point", "coordinates": [ -82.432256, 27.953381 ] } },
{ "type": "Feature", "properties": { "Station Name": "Four Points by Sheraton Suites Tampa Airport Westshore - Tesla Destination", "City": "Tampa", "Latitude": 27.95138, "Longitude": -82.518495 }, "geometry": { "type": "Point", "coordinates": [ -82.518495, 27.95138 ] } },
{ "type": "Feature", "properties": { "Station Name": "7Charge - Tampa 33019", "City": "Tampa", "Latitude": 28.1185, "Longitude": -82.37872 }, "geometry": { "type": "Point", "coordinates": [ -82.37872, 28.1185 ] } },
{ "type": "Feature", "properties": { "Station Name": "Holiday Inn Tampa Westshore - Tesla Destination", "City": "Tampa", "Latitude": 27.951438, "Longitude": -82.525537 }, "geometry": { "type": "Point", "coordinates": [ -82.525537, 27.951438 ] } },
{ "type": "Feature", "properties": { "Station Name": "VW BRANDON EAST", "City": "Tampa", "Latitude": 27.949325, "Longitude": -82.343763 }, "geometry": { "type": "Point", "coordinates": [ -82.343763, 27.949325 ] } },
{ "type": "Feature", "properties": { "Station Name": "VW BRANDON WEST", "City": "Tampa", "Latitude": 27.949131, "Longitude": -82.34417 }, "geometry": { "type": "Point", "coordinates": [ -82.34417, 27.949131 ] } },
{ "type": "Feature", "properties": { "Station Name": "LEXUS OF TAMPA CT4020", "City": "Tampa", "Latitude": 28.001426, "Longitude": -82.505875 }, "geometry": { "type": "Point", "coordinates": [ -82.505875, 28.001426 ] } },
{ "type": "Feature", "properties": { "Station Name": "Alton West Shore", "City": "Tampa", "Latitude": 27.88771964725581, "Longitude": -82.526420408597275 }, "geometry": { "type": "Point", "coordinates": [ -82.526420408597275, 27.88771964725581 ] } },
{ "type": "Feature", "properties": { "Station Name": "345 Bayshore", "City": "Tampa", "Latitude": 27.939175, "Longitude": -82.4622865 }, "geometry": { "type": "Point", "coordinates": [ -82.4622865, 27.939175 ] } },
{ "type": "Feature", "properties": { "Station Name": "Nine15 location", "City": "Tampa", "Latitude": 27.9519961, "Longitude": -82.45929 }, "geometry": { "type": "Point", "coordinates": [ -82.45929, 27.9519961 ] } },
{ "type": "Feature", "properties": { "Station Name": "Havana Square", "City": "Tampa", "Latitude": 27.947952, "Longitude": -82.477906 }, "geometry": { "type": "Point", "coordinates": [ -82.477906, 27.947952 ] } },
{ "type": "Feature", "properties": { "Station Name": "Delaware Parking Garage", "City": "Tampa", "Latitude": 27.946434, "Longitude": -82.470641 }, "geometry": { "type": "Point", "coordinates": [ -82.470641, 27.946434 ] } },
{ "type": "Feature", "properties": { "Station Name": "IRES", "City": "Tampa", "Latitude": 27.940731, "Longitude": -82.367843 }, "geometry": { "type": "Point", "coordinates": [ -82.367843, 27.940731 ] } },
{ "type": "Feature", "properties": { "Station Name": "West Garage", "City": "Tampa", "Latitude": 27.9486, "Longitude": -82.469099 }, "geometry": { "type": "Point", "coordinates": [ -82.469099, 27.9486 ] } },
{ "type": "Feature", "properties": { "Station Name": "Spaulding", "City": "Tampa", "Latitude": 27.946236, "Longitude": -82.467889 }, "geometry": { "type": "Point", "coordinates": [ -82.467889, 27.946236 ] } },
{ "type": "Feature", "properties": { "Station Name": "The Pointe at Harbour Island", "City": "Tampa", "Latitude": 27.9387237, "Longitude": -82.454881 }, "geometry": { "type": "Point", "coordinates": [ -82.454881, 27.9387237 ] } },
{ "type": "Feature", "properties": { "Station Name": "The Pointe_ Cousins Tampa", "City": "Tampa", "Latitude": 27.962792, "Longitude": -82.57116 }, "geometry": { "type": "Point", "coordinates": [ -82.57116, 27.962792 ] } },
{ "type": "Feature", "properties": { "Station Name": "Metwest 4030", "City": "Tampa", "Latitude": 27.964565, "Longitude": -82.511565 }, "geometry": { "type": "Point", "coordinates": [ -82.511565, 27.964565 ] } },
{ "type": "Feature", "properties": { "Station Name": "Corporate Center II/III", "City": "Tampa", "Latitude": 27.966139, "Longitude": -82.515508 }, "geometry": { "type": "Point", "coordinates": [ -82.515508, 27.966139 ] } },
{ "type": "Feature", "properties": { "Station Name": "Metwest 4010", "City": "Tampa", "Latitude": 27.965775, "Longitude": -82.511204 }, "geometry": { "type": "Point", "coordinates": [ -82.511204, 27.965775 ] } },
{ "type": "Feature", "properties": { "Station Name": "Corporate Center I", "City": "Tampa", "Latitude": 27.960494, "Longitude": -82.525253 }, "geometry": { "type": "Point", "coordinates": [ -82.525253, 27.960494 ] } },
{ "type": "Feature", "properties": { "Station Name": "HQ Outdoor Parking Lot", "City": "Tampa", "Latitude": 27.950766, "Longitude": -82.460582 }, "geometry": { "type": "Point", "coordinates": [ -82.460582, 27.950766 ] } },
{ "type": "Feature", "properties": { "Station Name": "Ybor City Office", "City": "Tampa", "Latitude": 27.956634, "Longitude": -82.446766 }, "geometry": { "type": "Point", "coordinates": [ -82.446766, 27.956634 ] } },
{ "type": "Feature", "properties": { "Station Name": "Moffitt McKinley Hospital", "City": "Tampa", "Latitude": 28.047082384443772, "Longitude": -82.414849705371424 }, "geometry": { "type": "Point", "coordinates": [ -82.414849705371424, 28.047082384443772 ] } },
{ "type": "Feature", "properties": { "Station Name": "CED Electric Supplies", "City": "Tampa", "Latitude": 27.9533384268974, "Longitude": -82.403237768748497 }, "geometry": { "type": "Point", "coordinates": [ -82.403237768748497, 27.9533384268974 ] } },
{ "type": "Feature", "properties": { "Station Name": "TGH Outpatient Center", "City": "Tampa", "Latitude": 27.93, "Longitude": -82.34 }, "geometry": { "type": "Point", "coordinates": [ -82.34, 27.93 ] } },
{ "type": "Feature", "properties": { "Station Name": "TOTB NCB1", "City": "Tampa", "Latitude": 28.068586, "Longitude": -82.44898 }, "geometry": { "type": "Point", "coordinates": [ -82.44898, 28.068586 ] } },
{ "type": "Feature", "properties": { "Station Name": "TOTB NCB2", "City": "Tampa", "Latitude": 28.068692, "Longitude": -82.449004 }, "geometry": { "type": "Point", "coordinates": [ -82.449004, 28.068692 ] } },
{ "type": "Feature", "properties": { "Station Name": "Bainbridge at Westshore Marina station location", "City": "Tampa", "Latitude": 27.8889135, "Longitude": -82.529426 }, "geometry": { "type": "Point", "coordinates": [ -82.529426, 27.8889135 ] } },
{ "type": "Feature", "properties": { "Station Name": "BRANDON FORD LVL 3 #2 (CP)", "City": "Tampa", "Latitude": 27.950551, "Longitude": -82.354995 }, "geometry": { "type": "Point", "coordinates": [ -82.354995, 27.950551 ] } },
{ "type": "Feature", "properties": { "Station Name": "TGH Kennedy Garage", "City": "Tampa", "Latitude": 27.9443118, "Longitude": -82.4660545 }, "geometry": { "type": "Point", "coordinates": [ -82.4660545, 27.9443118 ] } },
{ "type": "Feature", "properties": { "Station Name": "C-HYUNDAI CPE2", "City": "Tampa", "Latitude": 27.995027, "Longitude": -82.507306 }, "geometry": { "type": "Point", "coordinates": [ -82.507306, 27.995027 ] } },
{ "type": "Feature", "properties": { "Station Name": "C-HYUNDAI CPE1", "City": "Tampa", "Latitude": 27.995026, "Longitude": -82.507314 }, "geometry": { "type": "Point", "coordinates": [ -82.507314, 27.995026 ] } },
{ "type": "Feature", "properties": { "Station Name": "Checkmate Pizza HQ", "City": "Tampa", "Latitude": 27.9508159, "Longitude": -82.5301885 }, "geometry": { "type": "Point", "coordinates": [ -82.5301885, 27.9508159 ] } },
{ "type": "Feature", "properties": { "Station Name": "320 E Cass St", "City": "Tampa", "Latitude": 27.9517486, "Longitude": -82.4589942 }, "geometry": { "type": "Point", "coordinates": [ -82.4589942, 27.9517486 ] } },
{ "type": "Feature", "properties": { "Station Name": "Domino's", "City": "Tampa", "Latitude": 27.9599852, "Longitude": -82.4023436 }, "geometry": { "type": "Point", "coordinates": [ -82.4023436, 27.9599852 ] } },
{ "type": "Feature", "properties": { "Station Name": "3001 W Bay", "City": "Tampa", "Latitude": 27.9073982, "Longitude": -82.4923122 }, "geometry": { "type": "Point", "coordinates": [ -82.4923122, 27.9073982 ] } },
{ "type": "Feature", "properties": { "Station Name": "Central Ops Center", "City": "Tampa", "Latitude": 28.012395, "Longitude": -82.432878 }, "geometry": { "type": "Point", "coordinates": [ -82.432878, 28.012395 ] } },
{ "type": "Feature", "properties": { "Station Name": "The Gray", "City": "Tampa", "Latitude": 27.948782, "Longitude": -82.476989 }, "geometry": { "type": "Point", "coordinates": [ -82.476989, 27.948782 ] } },
{ "type": "Feature", "properties": { "Station Name": "USF Research Foundation", "City": "Tampa", "Latitude": 28.054914, "Longitude": -82.415058 }, "geometry": { "type": "Point", "coordinates": [ -82.415058, 28.054914 ] } },
{ "type": "Feature", "properties": { "Station Name": "Bill Currie Ford - Series", "City": "Tampa", "Latitude": 28.001066, "Longitude": -82.504478 }, "geometry": { "type": "Point", "coordinates": [ -82.504478, 28.001066 ] } },
{ "type": "Feature", "properties": { "Station Name": "Maus Acura of North Tampa", "City": "Tampa", "Latitude": 28.0504779654811, "Longitude": -82.458697925531794 }, "geometry": { "type": "Point", "coordinates": [ -82.458697925531794, 28.0504779654811 ] } },
{ "type": "Feature", "properties": { "Station Name": "HIGHWOODS RTP OHP", "City": "Tampa", "Latitude": 27.937993, "Longitude": -82.453992 }, "geometry": { "type": "Point", "coordinates": [ -82.453992, 27.937993 ] } },
{ "type": "Feature", "properties": { "Station Name": "Society at Westshore", "City": "Tampa", "Latitude": 27.961839967682195, "Longitude": -82.514725932113222 }, "geometry": { "type": "Point", "coordinates": [ -82.514725932113222, 27.961839967682195 ] } },
{ "type": "Feature", "properties": { "Station Name": "Ally Urban Centre", "City": "Tampa", "Latitude": 27.94389, "Longitude": -82.52623 }, "geometry": { "type": "Point", "coordinates": [ -82.52623, 27.94389 ] } },
{ "type": "Feature", "properties": { "Station Name": "The Watson", "City": "Tampa", "Latitude": 27.8695702, "Longitude": -82.5215372 }, "geometry": { "type": "Point", "coordinates": [ -82.5215372, 27.8695702 ] } },
{ "type": "Feature", "properties": { "Station Name": "Bayside Power Station", "City": "Tampa", "Latitude": 27.907158, "Longitude": -82.416688 }, "geometry": { "type": "Point", "coordinates": [ -82.416688, 27.907158 ] } },
{ "type": "Feature", "properties": { "Station Name": "Grand Center Parking Garage", "City": "Tampa", "Latitude": 27.948668, "Longitude": -82.466179 }, "geometry": { "type": "Point", "coordinates": [ -82.466179, 27.948668 ] } },
{ "type": "Feature", "properties": { "Station Name": "Hampton Inn Tampa Downtown Channel District", "City": "Tampa", "Latitude": 27.950339, "Longitude": -82.448538 }, "geometry": { "type": "Point", "coordinates": [ -82.448538, 27.950339 ] } },
{ "type": "Feature", "properties": { "Station Name": "Veterans Ford - Level 2", "City": "Tampa", "Latitude": 28.041786778692757, "Longitude": -82.561811218732032 }, "geometry": { "type": "Point", "coordinates": [ -82.561811218732032, 28.041786778692757 ] } },
{ "type": "Feature", "properties": { "Station Name": "Veterans Ford - DCFC", "City": "Tampa", "Latitude": 28.04106, "Longitude": -82.561225 }, "geometry": { "type": "Point", "coordinates": [ -82.561225, 28.04106 ] } },
{ "type": "Feature", "properties": { "Station Name": "Bill Currie Ford - DCFC", "City": "Tampa", "Latitude": 28.001099451947898, "Longitude": -82.50444151950839 }, "geometry": { "type": "Point", "coordinates": [ -82.50444151950839, 28.001099451947898 ] } },
{ "type": "Feature", "properties": { "Station Name": "Alset Auto Tampa - Tesla Destination", "City": "Tampa", "Latitude": 27.966135, "Longitude": -82.408189 }, "geometry": { "type": "Point", "coordinates": [ -82.408189, 27.966135 ] } },
{ "type": "Feature", "properties": { "Station Name": "Hampton Inn & Suites Ybor - Tesla Destination", "City": "Tampa", "Latitude": 27.95975, "Longitude": -82.445 }, "geometry": { "type": "Point", "coordinates": [ -82.445, 27.95975 ] } },
{ "type": "Feature", "properties": { "Station Name": "Franklin Exchange Garage - Tesla Destination", "City": "Tampa", "Latitude": 27.949606, "Longitude": -82.458393 }, "geometry": { "type": "Point", "coordinates": [ -82.458393, 27.949606 ] } },
{ "type": "Feature", "properties": { "Station Name": "Lunex Power Inc. - Tesla Destination", "City": "Tampa", "Latitude": 27.988287, "Longitude": -82.509091 }, "geometry": { "type": "Point", "coordinates": [ -82.509091, 27.988287 ] } },
{ "type": "Feature", "properties": { "Station Name": "Hertz Local Edition #17-1110577-1001 - Tesla Destination", "City": "Tampa", "Latitude": 28.054965, "Longitude": -82.447555 }, "geometry": { "type": "Point", "coordinates": [ -82.447555, 28.054965 ] } },
{ "type": "Feature", "properties": { "Station Name": "Hertz Sheltair Tampa Jet Center, LLC  #TPA - Tesla Destination", "City": "Tampa", "Latitude": 27.967616, "Longitude": -82.517484 }, "geometry": { "type": "Point", "coordinates": [ -82.517484, 27.967616 ] } },
{ "type": "Feature", "properties": { "Station Name": "Taubman International Plaza (Tampa, FL)", "City": "Tampa", "Latitude": 27.96229, "Longitude": -82.52146 }, "geometry": { "type": "Point", "coordinates": [ -82.52146, 27.96229 ] } },
{ "type": "Feature", "properties": { "Station Name": "Thorntons, Gunn Hwy, Tampa, FL", "City": "Tampa", "Latitude": 28.040807, "Longitude": -82.508502 }, "geometry": { "type": "Point", "coordinates": [ -82.508502, 28.040807 ] } },
{ "type": "Feature", "properties": { "Station Name": "Seazen Apartments", "City": "Tampa", "Latitude": 27.9669085, "Longitude": -82.5659982 }, "geometry": { "type": "Point", "coordinates": [ -82.5659982, 27.9669085 ] } },
{ "type": "Feature", "properties": { "Station Name": "Rivard Buick GMC", "City": "Tampa", "Latitude": 27.950127, "Longitude": -82.345118 }, "geometry": { "type": "Point", "coordinates": [ -82.345118, 27.950127 ] } },
{ "type": "Feature", "properties": { "Station Name": "Sabal Park LLC", "City": "Tampa", "Latitude": 27.978942, "Longitude": -82.333538 }, "geometry": { "type": "Point", "coordinates": [ -82.333538, 27.978942 ] } },
{ "type": "Feature", "properties": { "Station Name": "Stay-N-Charge - Holiday Inn Express & Suites Tampa Stadium - Airport Area", "City": "Tampa", "Latitude": 27.961, "Longitude": -82.50454 }, "geometry": { "type": "Point", "coordinates": [ -82.50454, 27.961 ] } },
{ "type": "Feature", "properties": { "Station Name": "Thorntons, 2356 W Hillsborough Ave, Tampa, FL", "City": "Tampa", "Latitude": 27.995517, "Longitude": -82.483504 }, "geometry": { "type": "Point", "coordinates": [ -82.483504, 27.995517 ] } },
{ "type": "Feature", "properties": { "Station Name": "L499 CP6K-2", "City": "Tampa", "Latitude": 28.038317, "Longitude": -82.460347 }, "geometry": { "type": "Point", "coordinates": [ -82.460347, 28.038317 ] } },
{ "type": "Feature", "properties": { "Station Name": "Thorntons, 6405 W Hillsborough Ave, Tampa, FL", "City": "Tampa", "Latitude": 27.997084, "Longitude": -82.550561 }, "geometry": { "type": "Point", "coordinates": [ -82.550561, 27.997084 ] } },
{ "type": "Feature", "properties": { "Station Name": "Wawa - Tesla Supercharger", "City": "Tampa", "Latitude": 27.995268, "Longitude": -82.47826 }, "geometry": { "type": "Point", "coordinates": [ -82.47826, 27.995268 ] } },
{ "type": "Feature", "properties": { "Station Name": "Wawa - Tesla Supercharger", "City": "Tampa", "Latitude": 27.89279, "Longitude": -82.504655 }, "geometry": { "type": "Point", "coordinates": [ -82.504655, 27.89279 ] } },
{ "type": "Feature", "properties": { "Station Name": "TAMPA EDITION 1102A", "City": "Tampa", "Latitude": 27.943763, "Longitude": -82.45073 }, "geometry": { "type": "Point", "coordinates": [ -82.45073, 27.943763 ] } },
{ "type": "Feature", "properties": { "Station Name": "L499 POWERLINK 1", "City": "Tampa", "Latitude": 28.038985, "Longitude": -82.459952 }, "geometry": { "type": "Point", "coordinates": [ -82.459952, 28.038985 ] } },
{ "type": "Feature", "properties": { "Station Name": "L499 POWERLINK 2", "City": "Tampa", "Latitude": 28.038898, "Longitude": -82.459967 }, "geometry": { "type": "Point", "coordinates": [ -82.459967, 28.038898 ] } },
{ "type": "Feature", "properties": { "Station Name": "USF Sycamore Drive Lot 18", "City": "Tampa", "Latitude": 28.061227, "Longitude": -82.403296 }, "geometry": { "type": "Point", "coordinates": [ -82.403296, 28.061227 ] } },
{ "type": "Feature", "properties": { "Station Name": "Northdale ER", "City": "Tampa", "Latitude": 28.10656, "Longitude": -82.503195 }, "geometry": { "type": "Point", "coordinates": [ -82.503195, 28.10656 ] } },
{ "type": "Feature", "properties": { "Station Name": "USF Holly Drive Lot 56", "City": "Tampa", "Latitude": 28.066142, "Longitude": -82.409478 }, "geometry": { "type": "Point", "coordinates": [ -82.409478, 28.066142 ] } },
{ "type": "Feature", "properties": { "Station Name": "1810 W KENNEDY STATION 1", "City": "Tampa", "Latitude": 27.94402, "Longitude": -82.478562 }, "geometry": { "type": "Point", "coordinates": [ -82.478562, 27.94402 ] } },
{ "type": "Feature", "properties": { "Station Name": "Personal Pitstop Express", "City": "Tampa", "Latitude": 28.000641295190796, "Longitude": -82.592210613582864 }, "geometry": { "type": "Point", "coordinates": [ -82.592210613582864, 28.000641295190796 ] } },
{ "type": "Feature", "properties": { "Station Name": "IKEA Store 042 (Tampa, FL)", "City": "Tampa", "Latitude": 27.95355, "Longitude": -82.4337 }, "geometry": { "type": "Point", "coordinates": [ -82.4337, 27.95355 ] } },
{ "type": "Feature", "properties": { "Station Name": "Oak Ramble", "City": "Tampa", "Latitude": 28.08195, "Longitude": -82.41133 }, "geometry": { "type": "Point", "coordinates": [ -82.41133, 28.08195 ] } },
{ "type": "Feature", "properties": { "Station Name": "St. James Crossing", "City": "Tampa", "Latitude": 28.05954, "Longitude": -82.53841 }, "geometry": { "type": "Point", "coordinates": [ -82.53841, 28.05954 ] } },
{ "type": "Feature", "properties": { "Station Name": "The Dawson", "City": "Tampa", "Latitude": 28.08053, "Longitude": -82.40634 }, "geometry": { "type": "Point", "coordinates": [ -82.40634, 28.08053 ] } },
{ "type": "Feature", "properties": { "Station Name": "Midtown Tampa Waterview Garage (Private)", "City": "Tampa", "Latitude": 27.954287478722811, "Longitude": -82.50270351919373 }, "geometry": { "type": "Point", "coordinates": [ -82.50270351919373, 27.954287478722811 ] } },
{ "type": "Feature", "properties": { "Station Name": "Midtown Tampa Waterview Garage (Public)", "City": "Tampa", "Latitude": 27.954278001707031, "Longitude": -82.502617688504586 }, "geometry": { "type": "Point", "coordinates": [ -82.502617688504586, 27.954278001707031 ] } },
{ "type": "Feature", "properties": { "Station Name": "AdventHealth Parking Garage Level 4", "City": "Tampa", "Latitude": 28.071363, "Longitude": -82.423431 }, "geometry": { "type": "Point", "coordinates": [ -82.423431, 28.071363 ] } },
{ "type": "Feature", "properties": { "Station Name": "Employee Parking", "City": "Tampa", "Latitude": 27.995244, "Longitude": -82.378793 }, "geometry": { "type": "Point", "coordinates": [ -82.378793, 27.995244 ] } },
{ "type": "Feature", "properties": { "Station Name": "Copperline Electric", "City": "Tampa", "Latitude": 27.9506216, "Longitude": -82.3406811 }, "geometry": { "type": "Point", "coordinates": [ -82.3406811, 27.9506216 ] } },
{ "type": "Feature", "properties": { "Station Name": "Midtown Tampa Waterview Garage (Private/LM)", "City": "Tampa", "Latitude": 27.954296955737757, "Longitude": -82.502692790357585 }, "geometry": { "type": "Point", "coordinates": [ -82.502692790357585, 27.954296955737757 ] } },
{ "type": "Feature", "properties": { "Station Name": "MARINA BAY EV 1F-2", "City": "Tampa", "Latitude": 27.887974, "Longitude": -82.533917 }, "geometry": { "type": "Point", "coordinates": [ -82.533917, 27.887974 ] } },
{ "type": "Feature", "properties": { "Station Name": "Grand Hyatt Tampa Bay", "City": "Tampa", "Latitude": 27.96259664130822, "Longitude": -82.549448662033726 }, "geometry": { "type": "Point", "coordinates": [ -82.549448662033726, 27.96259664130822 ] } },
{ "type": "Feature", "properties": { "Station Name": "OBE EMBASSY TAMPA R", "City": "Tampa", "Latitude": 28.055641, "Longitude": -82.41752 }, "geometry": { "type": "Point", "coordinates": [ -82.41752, 28.055641 ] } },
{ "type": "Feature", "properties": { "Station Name": "OBE EMBASSY TAMPA L", "City": "Tampa", "Latitude": 28.055471, "Longitude": -82.417499 }, "geometry": { "type": "Point", "coordinates": [ -82.417499, 28.055471 ] } },
{ "type": "Feature", "properties": { "Station Name": "Lot 22A", "City": "Tampa", "Latitude": 28.05879, "Longitude": -82.408219 }, "geometry": { "type": "Point", "coordinates": [ -82.408219, 28.05879 ] } },
{ "type": "Feature", "properties": { "Station Name": "AdventHealth Outside Parking Garage", "City": "Tampa", "Latitude": 28.071363, "Longitude": -82.423431 }, "geometry": { "type": "Point", "coordinates": [ -82.423431, 28.071363 ] } },
{ "type": "Feature", "properties": { "Station Name": "Eastern Ops Center", "City": "Tampa", "Latitude": 27.942918, "Longitude": -82.366857 }, "geometry": { "type": "Point", "coordinates": [ -82.366857, 27.942918 ] } },
{ "type": "Feature", "properties": { "Station Name": "Spaulding Garage", "City": "Tampa", "Latitude": 27.946236, "Longitude": -82.467889 }, "geometry": { "type": "Point", "coordinates": [ -82.467889, 27.946236 ] } },
{ "type": "Feature", "properties": { "Station Name": "Milbrook Properties Point Plaza (Temple Terrace, FL)", "City": "Tampa", "Latitude": 28.03205, "Longitude": -82.35538 }, "geometry": { "type": "Point", "coordinates": [ -82.35538, 28.03205 ] } },
{ "type": "Feature", "properties": { "Station Name": "USF Bull Run Lot 6", "City": "Tampa", "Latitude": 28.06065, "Longitude": -82.405699 }, "geometry": { "type": "Point", "coordinates": [ -82.405699, 28.06065 ] } },
{ "type": "Feature", "properties": { "Station Name": "West Garage", "City": "Tampa", "Latitude": 27.948299, "Longitude": -82.4693 }, "geometry": { "type": "Point", "coordinates": [ -82.4693, 27.948299 ] } },
{ "type": "Feature", "properties": { "Station Name": "Research Foundation", "City": "Tampa", "Latitude": 28.055126, "Longitude": -82.415517 }, "geometry": { "type": "Point", "coordinates": [ -82.415517, 28.055126 ] } },
{ "type": "Feature", "properties": { "Station Name": "AdventHealth Tampa - Lot C", "City": "Tampa", "Latitude": 28.072681, "Longitude": -82.423211 }, "geometry": { "type": "Point", "coordinates": [ -82.423211, 28.072681 ] } },
{ "type": "Feature", "properties": { "Station Name": "Bell Westchase", "City": "Tampa", "Latitude": 28.041655646725378, "Longitude": -82.583618660487375 }, "geometry": { "type": "Point", "coordinates": [ -82.583618660487375, 28.041655646725378 ] } },
{ "type": "Feature", "properties": { "Station Name": "L499 CP6K-1", "City": "Tampa", "Latitude": 28.039047, "Longitude": -82.460133 }, "geometry": { "type": "Point", "coordinates": [ -82.460133, 28.039047 ] } },
{ "type": "Feature", "properties": { "Station Name": "Level 3 28 Kw Charger Reo Street", "City": "Tampa", "Latitude": 27.949437, "Longitude": -82.536496 }, "geometry": { "type": "Point", "coordinates": [ -82.536496, 27.949437 ] } }
]
}
